canton_id;canton_name;capital_city;area_km2;population_2024;latitude;longitude;urban_percentage;income_level_index;grid_reliability_index;charging_infrastructure_score;created_at
1;Quito;Quito;4204.58;2781641;-0.1807000;-784.678.000;95.0;1.40;0.95;0.80;2025-06-20 16:37:01.087053-05
2;Cayambe;Cayambe;1182.24;104362;0.0419000;-781.436.000;45.0;0.85;0.88;0.45;2025-06-20 16:37:01.087053-05
3;Mejia;Machachi;1459.24;106628;-0.5086000;-785.675.000;35.0;0.90;0.90;0.50;2025-06-20 16:37:01.087053-05
4;Pedro Moncayo;Tabacundo;337.20;39262;0.0431000;-782.456.000;40.0;0.80;0.85;0.40;2025-06-20 16:37:01.087053-05
5;Ruminahui;Sangolqui­;134.15;120301;-0.3312000;-784.486.000;85.0;1.30;0.92;0.75;2025-06-20 16:37:01.087053-05
6;San Miguel de los Bancos;San Miguel de los Bancos;814.50;21142;0.0364000;-788.567.000;25.0;0.70;0.80;0.25;2025-06-20 16:37:01.087053-05
7;Pedro Vicente Maldonado;Pedro Vicente Maldonado;656.50;16936;0.0847000;-790.456.000;30.0;0.75;0.82;0.30;2025-06-20 16:37:01.087053-05
8;Puerto Quito;Puerto Quito;693.80;23473;0.1067000;-792.156.000;20.0;0.65;0.78;0.20;2025-06-20 16:37:01.087053-05
